[
    {
      "name": "(주)비엔씨케이홀딩스",
      "type": "음식점",
      "dong": "시흥동",
      "gu": "수정구",
      "address": "경기도 성남시 수정구 창업로 54 B103호",
      "lat": "37.4002123",
      "lng": "127.104899",
      "tel": "031-625-0879",
      "payType": "모바일"
    },
    {
      "name": "곰작골나주곰탕 판교점",
      "type": "음식점",
      "dong": "시흥동",
      "gu": "수정구",
      "address": "경기도 성남시 수정구 창업로 54 (시흥동) 곰작골나주곰탕 판교점",
      "lat": "37.4119392",
      "lng": "127.093116",
      "tel": "031-625-0879",
      "payType": "모두"
    },
    {
      "name": "공임나라 고등점",
      "type": "음식점",
      "dong": "시흥동",
      "gu": "수정구",
      "address": "경기도 성남시 수정구 대왕판교로970번길 12 1층",
      "lat": "37.42666190000001",
      "lng": "127.1034156",
      "tel": "031-722-0159",
      "payType": "모바일"
    },
    {
      "name": "나고야",
      "type": "음식점",
      "dong": "시흥동",
      "gu": "수정구",
      "address": "경기도 성남시 수정구 대왕판교로 846 1층",
      "lat": "37.4249405",
      "lng": "127.1032035",
      "tel": "031-000-0000",
      "payType": "모바일"
    },
    {
      "name": "넝쿨포도",
      "type": "음식점",
      "dong": "시흥동",
      "gu": "수정구",
      "address": "경기도 성남시 수정구 설개로21번길 9 101호",
      "lat": "37.4211694",
      "lng": "127.1072839",
      "tel": "031-752-2167",
      "payType": "모두"
    },
    {
      "name": "도깨비 떡볶이",
      "type": "음식점",
      "dong": "시흥동",
      "gu": "수정구",
      "address": "경기도 성남시 수정구 설개로 117",
      "lat": "37.4144418",
      "lng": "127.1121614",
      "tel": "031-000-0000",
      "payType": "지류"
    },
    {
      "name": "동네술집",
      "type": "음식점",
      "dong": "시흥동",
      "gu": "수정구",
      "address": "경기도 성남시 수정구 대왕판교로 815 (시흥동) 1층 110호",
      "lat": "37.4270006",
      "lng": "127.1119962",
      "tel": "031-000-0000",
      "payType": "지류"
    },
    {
      "name": "동태찌개",
      "type": "음식점",
      "dong": "시흥동",
      "gu": "수정구",
      "address": "경기도 성남시 수정구 대왕판교로 812 포시빌딩.지하107호 동태찌개",
      "lat": "37.4129405",
      "lng": "127.1004557",
      "tel": "031-758-1272",
      "payType": "모두"
    },
    {
      "name": "뒤나미스",
      "type": "음식점",
      "dong": "시흥동",
      "gu": "수정구",
      "address": "경기도 성남시 수정구 창업로42, 지하1층 B110호(시흥동,판교제2 테크노벨리경기 기업성장센터) 뒤나미스",
      "lat": "37.41108",
      "lng": "127.094741",
      "tel": "031-721-7577",
      "payType": "모두"
    },
    {
      "name": "라벨라빌라",
      "type": "음식점",
      "dong": "시흥동",
      "gu": "수정구",
      "address": "경기도 성남시 수정구 설개로 39 1층 라벨라빌라",
      "lat": "37.4195779",
      "lng": "127.107975",
      "tel": "031-757-3311",
      "payType": "모두"
    },
    {
      "name": "마리오븐",
      "type": "음식점",
      "dong": "시흥동",
      "gu": "수정구",
      "address": "경기도 성남시 수정구 창업로 42, 1층 117호(시흥동) 마리오븐",
      "lat": "37.4257716",
      "lng": "127.1093714",
      "tel": "031-757-8288",
      "payType": "모두"
    },
    {
      "name": "맛있는한우",
      "type": "음식점",
      "dong": "시흥동",
      "gu": "수정구",
      "address": "경기도 성남시 수정구 여수대로 9 1층 맛있는한우",
      "lat": "37.4225515",
      "lng": "127.1032217",
      "tel": "031-754-0113",
      "payType": "지류"
    },
    {
      "name": "메종 모랫말",
      "type": "음식점",
      "dong": "시흥동",
      "gu": "수정구",
      "address": "경기도 성남시 수정구 설개로 10 1층",
      "lat": "37.4216391",
      "lng": "127.1057666",
      "tel": "070-4240-5455",
      "payType": "모두"
    },
    {
      "name": "백경한우 판교본점",
      "type": "음식점",
      "dong": "시흥동",
      "gu": "수정구",
      "address": "경기도 성남시 수정구 창업로 42 판교제2테크노밸리 기업성장센터 지하1층 117호",
      "lat": "37.411137",
      "lng": "127.099779",
      "tel": "031-623-0533",
      "payType": "모두"
    },
    {
      "name": "백암손맛순대국",
      "type": "음식점",
      "dong": "시흥동",
      "gu": "수정구",
      "address": "경기도 성남시 수정구 대왕판교로 812, B104, B105호 백암손맛순대국",
      "lat": "37.4129405",
      "lng": "127.1004557",
      "tel": "031-753-2237",
      "payType": "모두"
    },
    {
      "name": "산아래",
      "type": "음식점",
      "dong": "시흥동",
      "gu": "수정구",
      "address": "경기도 성남시 수정구 여수대로 56번길 1 산아래",
      "lat": "37.4221099",
      "lng": "127.1085663",
      "tel": "031-723-8312",
      "payType": "모두"
    },
    {
      "name": "송이와은어향기",
      "type": "음식점",
      "dong": "시흥동",
      "gu": "수정구",
      "address": "경기도 성남시 수정구 대왕판교로 962 1층 송이와은어향기",
      "lat": "37.4260493",
      "lng": "127.1027235",
      "tel": "031-758-6600",
      "payType": "모두"
    },
    {
      "name": "수랏간",
      "type": "음식점",
      "dong": "시흥동",
      "gu": "수정구",
      "address": "경기도 성남시 수정구 창업로 42 (시흥동) 수랏간",
      "lat": "37.4114936",
      "lng": "127.0941177",
      "tel": "010-8823-3984",
      "payType": "모두"
    },
    {
      "name": "아토",
      "type": "음식점",
      "dong": "시흥동",
      "gu": "수정구",
      "address": "경기도 성남시 수정구 복정로 15 1층 아토",
      "lat": "37.454281",
      "lng": "127.1272195",
      "tel": "031-756-8837",
      "payType": "모바일"
    },
    {
      "name": "야미카츠 본점",
      "type": "음식점",
      "dong": "시흥동",
      "gu": "수정구",
      "address": "경기도 성남시 수정구 대왕판교로 815 기업지원허브 상가동 106호 야미카츠",
      "lat": "37.4249405",
      "lng": "127.1032035",
      "tel": "0316984790",
      "payType": "모두"
    },
    {
      "name": "양가대가",
      "type": "음식점",
      "dong": "시흥동",
      "gu": "수정구",
      "address": "경기도 성남시 수정구 설개로 8 (시흥동) 1층",
      "lat": "37.4215243",
      "lng": "127.1056019",
      "tel": "031-000-0000",
      "payType": "지류"
    },
    {
      "name": "어머니밥상",
      "type": "음식점",
      "dong": "시흥동",
      "gu": "수정구",
      "address": "경기도 성남시 수정구 대왕판교로 824 남측일부 1층 (시흥동) 어머니밥상",
      "lat": "37.4138392",
      "lng": "127.1009725",
      "tel": "031-758-7474",
      "payType": "모두"
    },
    {
      "name": "어사랑화덕생선구이",
      "type": "음식점",
      "dong": "시흥동",
      "gu": "수정구",
      "address": "경기도 성남시 수정구 설개로 8 (시흥동) 2층 (시흥동)",
      "lat": "37.4215243",
      "lng": "127.1056019",
      "tel": "031-721-3369",
      "payType": "모두"
    },
    {
      "name": "오하",
      "type": "음식점",
      "dong": "시흥동",
      "gu": "수정구",
      "address": "경기도 성남시 수정구 창업로40번길 6 상가2호",
      "lat": "37.3731224",
      "lng": "127.1381144",
      "tel": "070-8776-3107",
      "payType": "모바일"
    },
    {
      "name": "올가정원",
      "type": "음식점",
      "dong": "시흥동",
      "gu": "수정구",
      "address": "경기도 성남시 수정구 사송로 76 올가정원",
      "lat": "37.41446579999999",
      "lng": "127.1112721",
      "tel": "031-753-4611",
      "payType": "모두"
    },
    {
      "name": "임진강 메기매운탕",
      "type": "음식점",
      "dong": "시흥동",
      "gu": "수정구",
      "address": "경기도 성남시 수정구 설개로14번길 16 1층 (시흥동) 임진강 메기매운탕",
      "lat": "37.4208119",
      "lng": "127.1046851",
      "tel": "031-723-6264",
      "payType": "모두"
    },
    {
      "name": "잉카바베큐",
      "type": "음식점",
      "dong": "시흥동",
      "gu": "수정구",
      "address": "경기도 성남시 수정구 설개로 39 (시흥동)",
      "lat": "37.4195779",
      "lng": "127.107975",
      "tel": "031-000-0000",
      "payType": "지류"
    },
    {
      "name": "정가네 아구찜",
      "type": "음식점",
      "dong": "시흥동",
      "gu": "수정구",
      "address": "경기도 성남시 수정구 설개로 18",
      "lat": "37.4210918",
      "lng": "127.10632",
      "tel": "031-000-0000",
      "payType": "지류"
    },
    {
      "name": "정박사보쌈부대찌개(본점)",
      "type": "음식점",
      "dong": "시흥동",
      "gu": "수정구",
      "address": "경기도 성남시 수정구 설개로 117, 지하1, 1층 정박사보쌈부대찌개(본점)",
      "lat": "37.4144418",
      "lng": "127.1121614",
      "tel": "031-752-5959",
      "payType": "모두"
    },
    {
      "name": "졸리굿카페(Joollygood café)",
      "type": "음식점",
      "dong": "시흥동",
      "gu": "수정구",
      "address": "경기도 성남시 수정구 사송로77번길 25 (사송동) 1층 (사송동)",
      "lat": "37.4125588",
      "lng": "127.1123136",
      "tel": "070-8861-0710",
      "payType": "모두"
    },
    {
      "name": "철수네집밥",
      "type": "음식점",
      "dong": "시흥동",
      "gu": "수정구",
      "address": "경기도 성남시 수정구 설개로2번길 13, 1층 철수네집밥",
      "lat": "37.4212318",
      "lng": "127.1044519",
      "tel": "031-000-0000",
      "payType": "모두"
    },
    {
      "name": "카페리빈",
      "type": "음식점",
      "dong": "시흥동",
      "gu": "수정구",
      "address": "경기도 성남시 수정구 창업로 42 1층 122호 카페리빈",
      "lat": "37.4002123",
      "lng": "127.104899",
      "tel": "031-604-3210",
      "payType": "모두"
    },
    {
      "name": "카페멜로이",
      "type": "음식점",
      "dong": "시흥동",
      "gu": "수정구",
      "address": "경기도 성남시 수정구 설개로 90 1층",
      "lat": "37.4190414",
      "lng": "127.1076868",
      "tel": "031-000-0000",
      "payType": "모바일"
    },
    {
      "name": "콜드앤브런치",
      "type": "음식점",
      "dong": "시흥동",
      "gu": "수정구",
      "address": "경기도 성남시 수정구 대왕판교로 815 1층 110호",
      "lat": "37.4249405",
      "lng": "127.1032035",
      "tel": "031-5182-9140",
      "payType": "모두"
    },
    {
      "name": "크레마팜",
      "type": "음식점",
      "dong": "시흥동",
      "gu": "수정구",
      "address": "경기도 성남시 수정구 탄천로307번길 5(사송동) 크레마팜",
      "lat": "37.4190921",
      "lng": "127.1165696",
      "tel": "031-751-5456",
      "payType": "모두"
    },
    {
      "name": "판교양평해장국막국수",
      "type": "음식점",
      "dong": "시흥동",
      "gu": "수정구",
      "address": "경기도 성남시 수정구 여수대로 4, 1층 판교양평해장국막국수",
      "lat": "37.4219043",
      "lng": "127.1027097",
      "tel": "031-721-3326",
      "payType": "모두"
    },
    {
      "name": "하루엔소쿠 판교점",
      "type": "음식점",
      "dong": "시흥동",
      "gu": "수정구",
      "address": "경기도 성남시 수정구 창업로 42 (시흥동) 121호",
      "lat": "37.42109",
      "lng": "127.106912",
      "tel": "031-625-1011",
      "payType": "모두"
    },
    {
      "name": "한우랑돼지랑",
      "type": "음식점",
      "dong": "시흥동",
      "gu": "수정구",
      "address": "경기도 성남시 수정구 사송로 48, 지층, 1층 한우랑돼지랑",
      "lat": "37.4153001675913",
      "lng": "127.114115134591",
      "tel": "031-758-5295",
      "payType": "모두"
    },
    {
      "name": "호텔더일마",
      "type": "음식점",
      "dong": "시흥동",
      "gu": "수정구",
      "address": "경기도 성남시 수정구 사송로77번길 35 1층",
      "lat": "37.4119514",
      "lng": "127.1132628",
      "tel": "031-000-0000",
      "payType": "모바일"
    },
    {
      "name": "홍루원",
      "type": "음식점",
      "dong": "시흥동",
      "gu": "수정구",
      "address": "경기도 성남시 수정구 달래내로 20(금토동,1층,지하1층) 홍루원",
      "lat": "37.40959",
      "lng": "127.0977034",
      "tel": "031-781-4311",
      "payType": "모두"
    },
    {
      "name": "홍루원",
      "type": "음식점",
      "dong": "시흥동",
      "gu": "수정구",
      "address": "경기도 성남시 수정구 대왕판교로 812(시흥동,지하1층) 홍루원",
      "lat": "37.4129169",
      "lng": "127.1004619",
      "tel": "031-000-0000",
      "payType": "모두"
    },
    {
      "name": "홍쉐프라면",
      "type": "음식점",
      "dong": "시흥동",
      "gu": "수정구",
      "address": "경기도 성남시 수정구 여수대로 24, 104호 홍쉐프라면",
      "lat": "37.4216624",
      "lng": "127.1051447",
      "tel": "031-000-0000",
      "payType": "모두"
    },
    {
      "name": "황제푸드 판교점",
      "type": "음식점",
      "dong": "시흥동",
      "gu": "수정구",
      "address": "경기도 성남시 수정구 대왕판교로 812 (시흥동) 황제푸드 판교점",
      "lat": "37.4129405",
      "lng": "127.1004557",
      "tel": "010-8823-3984",
      "payType": "모두"
    }
  ]